     3.05           OBSERVATION DATA    M                   RINEX VERSION / TYPE
BNC 2.13.1          rtproc              20240510 215943 UTC PGM / RUN BY / DATE
SUN600SWE                                                   MARKER NAME
10440M002                                                   MARKER NUMBER
                                                            MARKER TYPE
                    LMV                                     OBSERVER / AGENCY
6116R40021          TRIMBLE ALLOY       6.15                REC # / TYPE / VERS
25070044            LEIAR20         LEIM                    ANT # / TYPE
  2838911.2970   903817.0220  5620660.9100                  APPROX POSITION XYZ
        0.0030        0.0000        0.0000                  ANTENNA: DELTA H/E/N
C   19 C2I L2I D2I S2I C6I L6I S6I C7I L7I S7I C5X L5X S5X  SYS / # / OBS TYPES
       C7D L7D S7D C1X L1X S1X                              SYS / # / OBS TYPES
E   16 C1X L1X D1X S1X C6X L6X S6X C7X L7X S7X C8X L8X S8X  SYS / # / OBS TYPES
       C5X L5X S5X                                          SYS / # / OBS TYPES
G   18 C1C L1C D1C S1C C2W L2W S2W C2X L2X D2X S2X C5X L5X  SYS / # / OBS TYPES
       S5X C1X L1X S1X D1X                                  SYS / # / OBS TYPES
R   13 C1C L1C D1C S1C C1P L1P S1P C2C L2C S2C C2P L2P S2P  SYS / # / OBS TYPES
  2024     5    10    22     0    0.0000000     GPS         TIME OF FIRST OBS
                                                            GLONASS COD/PHS/BIS
 25 R01  1 R02 -4 R03  5 R04  6 R05  1 R06 -4 R07  5 R08  6 GLONASS SLOT / FRQ #
    R09 -2 R10 -7 R11  0 R12 -1 R13 -2 R14 -7 R15  0 R16 -1 GLONASS SLOT / FRQ #
    R17  4 R18 -3 R19  3 R20  2 R21  4 R22 -3 R23  3 R24  2 GLONASS SLOT / FRQ #
    R25 -5                                                  GLONASS SLOT / FRQ #
                                                            END OF HEADER
> 2024 05 10 22 00  0.0000000  0 44
G04  24623841.293   129399223.666       -3646.251          35.000    24623848.190   100830823.690          20.000    24623847.922   100830819.704                          41.000    24623849.852    96629541.541          45.000    24623839.524   129399457.670          37.000
G05  22264517.139   117000875.908        2617.311          45.000    22264522.464    91169573.379          45.000    22264522.679    91169562.397                          47.000
G06                                                                                                                                                                                  25746640.886   101035540.914          26.000
G07  21114443.806   110957169.581         763.663          51.000    21114447.666    86459977.552          54.000    21114448.184    86459974.564                          52.000
G09  21441083.417   112673734.602       -2535.672          48.000    21441088.974    87797845.154          52.000    21441089.296    87797836.157                          49.000    21441087.223    84139587.314          54.000
G11  23673393.501   124404674.183       -3069.442          40.000    23673399.219    96938696.955          28.000    23673400.130    96938689.967                          44.000    23673402.274    92899637.325          49.000    23673391.892   124404793.181          42.000
G13  24293467.253   127663032.916        3786.697          31.000
G16  23051623.478   121137038.626       -1739.361          42.000    23051628.070    94392634.512          29.000
G18  25680795.949   134953625.488        3150.022          31.000    25680802.596   105158576.660          17.000    25680804.097   105158686.697                          38.000    25680805.902   100776971.900          42.000    25680793.983   134953477.480          32.000
G20  21003919.628   110376394.794         477.695          49.000    21003922.648    86007380.281          42.000
G26  25660785.574   134848352.990       -3456.571          29.000    25660793.382   105076664.797          22.000    25660793.365   105076730.827                          36.000    25660790.756   100698573.773          43.000
G27  24997978.982   131365246.038        2848.304          34.000    24997985.576   102362571.261          27.000    24997986.380   102362602.267                          37.000    24997983.360    98097456.973          41.000
G29  25282801.327   132861989.752       -2479.844          32.000    25282809.886   103528891.102          22.000    25282809.547   103528653.123                          34.000
G30  22170895.128   116508849.535        2751.809          47.000    22170902.204    90786229.853          48.000    22170902.883    90786220.865                          48.000    22170900.167    87003464.351          54.000
R03  20912328.556   111945420.281       -3181.149          49.000    20912327.627   111945409.301          48.000    20912331.540    87068704.889          49.000    20912331.236    87068702.890          48.000
R04  19122942.161   102402588.573         368.955          53.000    19122941.322   102402613.593          52.000    19122943.734    79646530.549          54.000    19122943.805    79646524.551          51.000
R05  21599358.931   115461009.733        3598.291          46.000    21599358.681   115460995.739          45.000    21599363.363    89803185.890          47.000    21599362.969    89803095.882          45.000
R12  22783172.750   121703615.588       -3912.719          43.000    22783171.892   121703690.593          42.000    22783176.628    94658487.308          44.000    22783177.575    94658464.300          41.000
R13  20080297.367   107227724.494       -1012.305          42.000    20080296.117   107227729.465          39.000    20080299.762    83399348.867          44.000    20080299.905    83399347.865          46.000
R14  21144229.913   112710729.689        3608.166          50.000    21144228.930   112710669.683          47.000    21144235.041    87663913.595          49.000    21144234.541    87663914.593          48.000
R20  21785811.786   116498530.494       -2220.143          36.000    21785812.018   116498523.506          35.000    21785817.861    90609992.757          39.000    21785817.272    90609982.766          38.000
R21  22284427.162   119248457.556        1902.730          43.000    22284425.983   119248427.552          43.000    22284430.647    92748829.761          43.000    22284431.379    92748829.789          41.000
E04  24504417.323   128771697.913       -1830.496          50.000    24504412.230   104522499.533          56.000    24504416.233    98669275.403          54.000    24504418.145    97415020.296          57.000    24504417.806    96160749.592          54.000
E05  25486196.338   133930902.603        2792.362          42.000    25486190.334   108710140.705          45.000    25486197.428   102622403.063          45.000    25486199.144   101317889.088          48.000    25486198.804   100013364.520          44.000
E09  23630201.267   124177629.541         814.329          52.000    23630196.406   100793538.556          59.000    23630201.017    95149133.262          56.000    23630203.107    93939623.211          59.000    23630203.000    92730099.565          55.000
E15  27889131.576   146558370.934        2491.450          38.000    27889129.824   118959705.625          43.000    27889136.597   112297996.001          43.000    27889139.331   110870486.555          48.000    27889139.527   109442969.513          45.000
E21  26515185.813   139338319.407       -1458.574          44.000    26515183.847   113099318.791          50.000    26515187.564   106765780.406          47.000    26515189.941   105408604.112          51.000    26515189.744   104051407.240          47.000
E31  27308474.476   143506957.028        3208.849          40.000    27308471.581   116482962.348          47.000    27308479.175   109959910.786          45.000    27308481.570   108562123.524          49.000    27308481.713   107164328.678          45.000
E34  25628070.109   134676513.800          17.150          46.000    25628067.321   109315376.196          51.000    25628072.753   103193744.415          51.000    25628074.701   101881971.478          53.000    25628074.540   100570189.964          49.000
E36  26270668.032   138053367.174       -2640.792          43.000    26270664.191   112056299.818          49.000    26270670.748   105781201.093          47.000    26270672.821   104436535.521          51.000    26270673.054   103091859.341          47.000
C05  40610332.919   211468882.316         -63.556          33.000    40610326.522   171835561.932          38.000    40610328.559   163520968.778          38.000
C06  39640809.194   206420204.672       -1214.966          35.000    39640798.437   167733255.854          39.000    39640803.101   159617205.807          41.000
C12  26137871.761   136106635.985        1814.986          35.000    26137862.166   110597872.502          40.000    26137868.206   105246387.372          44.000
C16  40674664.011   211803827.967       -1228.259          33.000    40674657.310   172107911.185          36.000    40674664.350   163780160.248          40.000
C19  24330928.677   126697663.018        2776.172          45.000    24330918.616   102952219.017          48.000                                                    24330927.068    95479934.220          50.000    24330925.139    97970708.491          45.000    24330928.409   127860174.974          45.000
C20  21862734.803   113845116.792         160.613          54.000    21862721.973    92508459.063          53.000                                                    21862729.603    85794184.956          57.000    21862727.923    88032273.868          52.000    21862733.909   114889550.581          54.000
C23  23175922.957   120683203.902       -1018.162          50.000    23175907.214    98064981.167          51.000                                                    23175914.147    90947371.565          54.000    23175912.110    93319929.242          49.000    23175922.314   121790388.687          50.000
C25  26120351.578   136015607.616       -3199.136          39.000    26120343.304   110523772.597          41.000                                                    26120348.379   102501940.122          43.000    26120347.289   105175896.969          39.000    26120349.576   137263429.670          39.000
C32  23995657.470   124951759.284       -2863.244          46.000    23995652.145   101533528.967          49.000                                                    23995658.917    94164210.202          51.000    23995656.952    96620624.815          46.000    23995657.881   126098098.311          47.000
C37  23323452.237   121451377.406        2218.895          50.000    23323448.127    98689176.370          51.000                                                    23323453.381    91526296.821          53.000    23323451.808    93913921.235          48.000    23323451.272   122565604.072          50.000
C39  41254583.977   214823540.120       -1336.286          35.000    41254575.400   174561712.769          38.000                                                    41254580.725   161891941.401          37.000    41254578.992   166115205.040          30.000    41254583.977   216794391.716          36.000
C40  40501420.616   210901602.223        2015.361          36.000    40501413.076   171374810.267          40.000                                                    40501418.883   158936343.334          44.000    40501416.953   163082511.153          38.000    40501420.491   212836444.901          37.000
C44  25394636.340   132236494.235         435.845          38.000    25394630.569   107452956.877          43.000                                                    25394637.716    99653946.648          44.000    25394634.982   102253662.721          38.000    25394633.821   133449670.657          34.000
C60  41468714.859   215938461.888         -27.972          35.000    41468695.668   175467624.270          39.000                                                                                                    41468702.869   166977322.230          40.000
> 2024 05 10 22 00  1.0000000  0 43
G04  24624534.843   129402869.818       -3646.141          34.000    24624541.955   100833664.840          21.000    24624541.937   100833660.834                          41.000    24624543.670    96632264.297          45.000    24624533.378   129403103.828          37.000
G05  22264019.148   116998258.788        2616.919          45.000    22264024.490    91167534.067          45.000    22264024.776    91167523.092                          47.000
G07  21114298.638   110956406.143         763.244          51.000    21114302.248    86459382.661          54.000    21114302.784    86459379.670                          52.000
G09  21441565.827   112676270.441       -2535.982          48.000    21441571.509    87799821.133          52.000    21441571.831    87799812.135                          49.000    21441569.847    84141480.958          54.000
G11  23673977.407   124407743.748       -3069.717          40.000    23673983.411    96941088.829          27.000    23673984.072    96941081.836                          44.000    23673986.341    92901929.532          49.000    23673975.959   124407862.734          42.000
G13  24292746.488   127659246.207        3786.630          32.000
G16  23051954.823   121138778.255       -1739.873          42.000    23051959.022    94393990.076          29.000
G18  25680196.640   134950475.560        3149.755          31.000    25680203.358   105156122.102          17.000    25680204.520   105156232.201                          38.000    25680206.557   100774619.666          42.000    25680194.924   134950327.570          33.000
G20  21003828.746   110375917.465         477.047          49.000    21003831.891    86007008.345          42.000
G26  25661443.332   134851809.644       -3456.785          29.000    25661451.141   105079358.319          22.000    25661451.141   105079424.339                          36.000    25661448.371   100701155.089          42.000
G27  24997436.890   131362398.024        2847.736          34.000    24997443.769   102360352.025          26.000    24997444.591   102360383.026                          37.000    24997441.303    98095330.211          41.000
G29  25283273.301   132864469.948       -2480.128          32.000    25283281.807   103530823.719          23.000    25283281.307   103530585.778                          34.000
G30  22170371.529   116506097.859        2751.541          47.000    22170378.606    90784085.685          48.000    22170379.302    90784076.690                          48.000    22170376.569    87001409.523          54.000
R03  20912922.594   111948601.604       -3181.515          49.000    20912921.897   111948590.622          47.000    20912926.203    87071179.255          49.000    20912925.256    87071177.253          48.000
R04  19122873.205   102402219.993         368.316          54.000    19122872.740   102402245.000          52.000    19122875.010    79646243.876          54.000    19122874.974    79646237.868          51.000
R05  21598685.876   115457411.488        3598.108          46.000    21598685.644   115457397.500          45.000    21598689.843    89800387.267          46.000    21598689.808    89800297.275          45.000
R12  22783905.023   121707528.324       -3912.915          43.000    22783904.290   121707603.329          42.000    22783908.686    94661530.552          44.000    22783909.901    94661507.555          41.000
R13  20080487.154   107228737.218       -1013.054          41.000    20080485.761   107228742.252          39.000    20080489.102    83400136.566          45.000    20080489.513    83400135.564          46.000
R14  21143553.249   112707121.756        3607.716          49.000    21143552.176   112707061.748          47.000    21143558.216    87661107.421          49.000    21143557.823    87661108.424          48.000
R20  21786226.937   116500751.102       -2221.034          37.000    21786226.722   116500744.106          35.000    21786233.030    90611719.862          38.000    21786232.494    90611709.875          37.000
R21  22284071.676   119246555.199        1902.044          43.000    22284070.193   119246525.210          43.000    22284075.125    92747350.164          43.000    22284075.821    92747350.176          41.000
E04  24504765.840   128773528.501       -1830.727          50.000    24504760.605   104523985.386          56.000    24504764.554    98670678.041          54.000    24504766.537    97416405.102          57.000    24504766.216    96162116.568          53.000
E05  25485665.003   133928110.273        2792.251          42.000    25485658.874   108707874.191          45.000    25485666.200   102620263.472          46.000    25485667.791   101315776.699          48.000    25485667.255   100011279.330          44.000
E09  23630046.485   124176815.349         814.055          51.000    23630041.482   100792877.688          59.000    23630046.110    95148509.405          56.000    23630048.183    93939007.284          60.000    23630048.093    92729491.568          56.000
E15  27888657.653   146555879.473        2491.341          39.000    27888655.688   118957683.404          43.000    27888662.478   112296087.020          44.000    27888665.123   110868601.832          49.000    27888665.337   109441109.069          46.000
E21  26515463.372   139339778.097       -1458.976          43.000    26515461.460   113100502.798          50.000    26515465.177   106766898.111          47.000    26515467.518   105409707.609          51.000    26515467.429   104052496.513          47.000
E31  27307864.141   143503748.126        3208.800          40.000    27307860.854   116480357.723          47.000    27307868.448   109957452.011          45.000    27307870.950   108559696.013          49.000    27307871.039   107161932.429          46.000
E34  25628066.964   134676496.930          16.600          46.000    25628063.890   109315362.503          51.000    25628069.716   103193731.480          50.000    25628071.503   101881958.721          53.000    25628071.252   100570177.361          49.000
E36  26271170.652   138056008.125       -2641.114          44.000    26271166.828   112058443.447          49.000    26271173.172   105783224.692          47.000    26271175.388   104438533.392          51.000    26271175.405   103093831.493          47.000
C05  40610345.034   211468945.911         -63.670          33.000    40610338.780   171835613.606          37.000    40610340.728   163521017.950          38.000
C06  39641042.653   206421419.583       -1215.031          36.000    39641031.717   167734243.092          39.000    39641036.578   159618145.280          41.000
C12  26137523.369   136104821.364        1814.525          35.000    26137513.577   110596397.986          40.000    26137519.617   105244984.203          44.000
C16  40674899.953   211805056.221       -1228.190          33.000    40674893.181   172108909.218          36.000    40674900.239   163781109.981          40.000
C19  24330395.733   126694886.890        2775.983          45.000    24330385.387   102949963.190          47.000                                                    24330393.893    95477842.141          50.000    24330392.016    97968561.827          45.000    24330395.161   127857373.374          45.000
C20  21862704.050   113844956.396         160.188          54.000    21862691.131    92508328.727          53.000                                                    21862698.814    85794064.077          57.000    21862697.135    88032149.842          52.000    21862703.103   114889388.708          54.000
C23  23176118.551   120684222.334       -1018.669          50.000    23176102.791    98065808.720          51.000                                                    23176109.706    90948139.069          54.000    23176107.687    93320716.750          49.000    23176117.801   121791416.471          50.000
C25  26120966.236   136018806.720       -3199.234          38.000    26120957.659   110526372.162          40.000                                                    26120962.698   102504351.007          41.000    26120961.590   105178370.757          39.000    26120963.985   137266658.097          38.000
C32  23996207.443   124954622.628       -2863.476          46.000    23996201.993   101535855.669          48.000                                                    23996208.855    94166368.032          52.000    23996206.853    96622838.930          46.000    23996207.639   126100987.927          47.000
C37  23323026.061   121449158.721        2218.511          49.000    23323022.130    98687373.511          51.000                                                    23323027.312    91524624.819          54.000    23323025.739    93912205.612          48.000    23323025.382   122563365.047          49.000
C39  41254840.594   214824876.375       -1336.246          34.000    41254832.089   174562798.534          37.000                                                    41254837.450   161892948.312          36.000    41254835.627   166116238.256          30.000    41254840.791   216795740.254          36.000
C40  40501033.538   210899586.930        2015.238          36.000    40501026.051   171373172.689          40.000                                                    40501031.858   158934824.604          44.000    40501029.892   163080952.815          38.000    40501033.716   212834411.102          38.000
C44  25394552.767   132236058.715         435.215          38.000    25394546.942   107452602.986          43.000                                                    25394553.982    99653618.451          44.000    25394551.320   102253325.960          38.000    25394550.390   133449231.133          34.000
C60  41468720.220   215938489.826         -27.954          35.000    41468701.028   175467646.957          38.000                                                                                                    41468708.283   166977343.822          40.000
> 2024 05 10 22 00  2.0000000  0 43
G04  24625228.608   129406516.063       -3646.272          34.000    24625235.916   100836506.044          20.000    24625235.595   100836502.049                          41.000    24625237.471    96634987.117          44.000    24625227.125   129406750.083          37.000
G05  22263521.084   116995642.170        2616.458          45.000    22263526.391    91165495.160          45.000    22263526.838    91165484.175                          47.000
G07  21114153.363   110955643.207         762.690          51.000    21114157.169    86458788.154          54.000    21114157.580    86458785.158                          52.000
G09  21442048.487   112678806.696       -2536.389          48.000    21442054.169    87801797.436          51.000    21442054.384    87801788.438                          49.000    21442052.436    84143374.906          54.000
G11  23674561.742   124410813.660       -3070.100          40.000    23674567.531    96943480.974          27.000    23674568.139    96943473.977                          43.000    23674570.515    92904222.005          49.000    23674560.187   124410932.651          41.000
G13  24292025.973   127655459.516        3786.720          31.000
G16  23052285.829   121140518.620       -1740.740          41.000    23052290.314    94395346.210          29.000
G18  25679597.277   134947325.996        3149.479          32.000    25679604.103   105153668.015          17.000    25679604.925   105153777.979                          38.000    25679607.212   100772267.699          42.000    25679595.508   134947177.944          32.000
G20  21003738.025   110375440.802         476.447          50.000    21003741.260    86006636.933          42.000
G26  25662100.966   134855266.597       -3456.963          29.000    25662108.989   105082052.081          22.000    25662109.114   105082118.088                          37.000    25662106.309   100703736.604          43.000
G27  24996894.761   131359550.432        2847.429          34.000    24996901.784   102358133.143          27.000    24996902.677   102358164.128                          37.000    24996899.407    98093203.772          41.000
G29  25283745.008   132866950.613       -2480.691          32.000    25283753.817   103532756.728          22.000    25283753.585   103532518.773                          34.000
G30  22169847.717   116503346.614        2751.089          47.000    22169855.007    90781941.853          48.000    22169855.704    90781932.876                          48.000    22169853.024    86999355.024          54.000
R03  20913517.168   111951783.374       -3181.952          49.000    20913516.399   111951772.388          47.000    20913520.170    87073653.978          49.000    20913519.634    87073651.976          48.000
R04  19122804.677   102401852.097         367.637          54.000    19122803.909   102401877.114          52.000    19122806.232    79645957.735          53.000    19122806.357    79645951.737          52.000
R05  21598012.822   115453813.586        3597.812          47.000    21598012.429   115453799.599          45.000    21598016.681    89797588.897          46.000    21598016.824    89797498.893          45.000
R12  22784637.742   121711441.478       -3913.380          43.000    22784636.670   121711516.495          42.000    22784641.548    94664574.125          43.000    22784642.852    94664551.124          41.000
R13  20080676.941   107229750.843       -1013.962          42.000    20080675.798   107229755.837          39.000    20080679.068    83400924.910          45.000    20080679.407    83400923.929          46.000
R14  21142876.602   112703514.404        3607.149          49.000    21142875.619   112703454.390          47.000    21142881.606    87658301.708          49.000    21142881.052    87658302.712          48.000
R20  21786642.213   116502972.558       -2221.753          36.000    21786641.838   116502965.565          35.000    21786648.199    90613447.656          38.000    21786648.020    90613437.670          37.000
R21  22283716.440   119244653.780        1901.073          44.000    22283715.028   119244623.797          43.000    22283719.888    92745871.283          42.000    22283720.621    92745871.285          41.000
E04  24505114.161   128775359.394       -1831.006          50.000    24505109.051   104525471.487          56.000    24505112.946    98672080.931          53.000    24505114.948    97417790.152          57.000    24505114.644    96163483.793          53.000
E05  25485133.685   133925318.060        2792.134          42.000    25485127.735   108705607.773          45.000    25485134.883   102618123.968          46.000    25485136.455   101313664.393          49.000    25485136.008   100009194.221          44.000
E09  23629891.632   124176001.530         813.698          51.000    23629886.504   100792217.115          59.000    23629891.257    95147885.827          56.000    23629893.312    93938391.628          59.000    23629893.223    92728883.837          56.000
E15  27888183.767   146553388.170        2491.309          39.000    27888181.480   118955661.274          44.000    27888188.270   112294178.105          44.000    27888191.022   110866717.193          50.000    27888191.290   109439248.699          47.000
E21  26515741.039   139341237.308       -1459.341          43.000    26515739.127   113101687.219          50.000    26515742.933   106768016.211          47.000    26515745.185   105410811.507          50.000    26515745.024   104053586.205          47.000
E31  27307253.378   143500539.345        3208.621          40.000    27307250.430   116477753.195          47.000    27307257.828   109954993.336          45.000    27307260.329   108557268.606          49.000    27307260.383   107159536.277          45.000
E34  25628063.890   134676480.620          16.098          46.000    25628060.942   109315349.267          51.000    25628066.606   103193718.990          50.000    25628068.411   101881946.380          53.000    25628068.179   100570165.182          49.000
E36  26271673.326   138058649.466       -2641.528          43.000    26271669.466   112060587.388          49.000    26271675.917   105785248.568          46.000    26271678.007   104440531.538          51.000    26271678.097   103095803.921          47.000
C05  40610357.632   211469009.565         -63.586          33.000    40610351.002   171835665.338          38.000    40610353.290   163521067.176          39.000
C06  39641276.040   206422634.511       -1214.919          35.000    39641264.926   167735230.339          39.000    39641269.768   159619084.768          41.000
C12  26137175.084   136103007.159        1814.063          35.000    26137165.095   110594923.802          41.000    26137171.010   105243581.349          44.000
C16  40675135.860   211806284.566       -1228.148          33.000    40675129.159   172109907.328          37.000    40675136.039   163782059.788          40.000
C19  24329862.450   126692111.009        2775.829          45.000    24329852.211   102947707.571          48.000                                                    24329860.717    95475750.236          51.000    24329858.894    97966415.353          45.000    24329862.271   127854572.038          45.000
C20  21862673.208   113844796.506         159.726          54.000    21862660.432    92508198.798          53.000                                                    21862668.169    85793943.568          57.000    21862666.400    88032026.199          52.000    21862672.368   114889227.355          54.000
C23  23176314.199   120685241.305       -1019.123          50.000    23176298.510    98066636.714          51.000                                                    23176305.390    90948906.952          54.000    23176303.460    93321504.676          49.000    23176313.502   121792444.784          50.000
C25  26121580.698   136022006.031       -3199.460          39.000    26121572.085   110528971.878          41.000                                                    26121577.142   102506762.058          43.000    26121575.963   105180844.688          39.000    26121578.268   137269886.795          38.000
C32  23996757.398   124957486.257       -2863.692          46.000    23996751.894   101538182.599          48.000                                                    23996758.738    94168526.079          51.000    23996756.772    96625053.269          46.000    23996757.755   126103877.821          47.000
C37  23322600.296   121446940.495        2218.107          49.000    23322596.132    98685571.019          51.000                                                    23322601.296    91522953.153          54.000    23322599.778    93910490.341          48.000    23322599.385   122561126.471          49.000
C39  41255097.569   214826212.540       -1336.048          35.000    41255088.742   174563884.194          38.000                                                    41255094.138   161893955.137          37.000    41255092.244   166117271.360          31.000    41255097.444   216797088.683          37.000
C40  40500646.620   210897571.711        2015.182          36.000    40500639.061   171371535.167          40.000                                                    40500644.886   158933305.934          44.000    40500642.867   163079394.521          38.000    40500646.709   212832377.406          38.000
C44  25394469.211   132235623.788         434.731          39.000    25394463.458   107452249.584          44.000                                                    25394470.409    99653290.693          45.000    25394467.818   102252989.663          38.000    25394466.888   133448792.242          35.000
C60  41468725.687   215938517.741         -27.927          35.000    41468706.460   175467669.629          38.000                                                                                                    41468713.680   166977365.392          39.000
> 2024 05 10 22 00  3.0000000  0 43
G04  24625922.766   129410162.339       -3646.265          35.000    24625929.788   100839347.288          19.000    24625929.324   100839343.321                          41.000    24625931.415    96637710.002          45.000    24625921.086   129410396.355          37.000
G05  22263023.557   116993026.010        2616.008          45.000    22263028.668    91163456.591          44.000    22263028.900    91163445.608                          47.000
G07  21114008.195   110954880.764         762.336          51.000    21114011.912    86458194.040          54.000    21114012.484    86458191.052                          52.000
G09  21442531.165   112681343.295       -2536.709          48.000    21442536.901    87803773.992          51.000    21442537.080    87803764.988                          49.000    21442535.186    84145269.100          54.000
G11  23675146.130   124413883.900       -3070.329          40.000    23675151.884    96945873.362          28.000    23675152.509    96945866.388                          44.000    23675154.832    92906514.728          48.000    23675144.308   124414002.888          41.000
G13  24291305.726   127651672.991        3786.231          31.000
G16  23052616.906   121142259.678       -1741.236          41.000    23052621.802    94396702.886          28.000
G18  25678998.236   134944176.623        3149.338          31.000    25679004.740   105151213.939          15.000    25679005.562   105151323.954                          38.000    25679007.742   100769915.918          41.000    25678996.127   134944028.635          32.000
G20  21003647.412   110374964.770         475.825          49.000    21003650.503    86006265.999          42.000
G26  25662758.671   134858723.736       -3457.243          29.000    25662766.855   105084745.973          22.000    25662767.070   105084811.973                          36.000    25662764.246   100706318.251          43.000
G27  24996352.794   131356703.248        2847.053          34.000    24996359.977   102355914.583          28.000    24996360.853   102355945.614                          37.000    24996357.511    98091077.700          42.000
G29  25284217.447   132869431.683       -2481.259          31.000    25284225.953   103534690.032          23.000    25284225.631   103534452.040                          34.000
G30  22169324.423   116500595.695        2750.846          47.000    22169331.445    90779798.291          48.000    22169332.249    90779789.291                          48.000    22169329.479    86997300.764          54.000
R03  20914111.652   111954965.543       -3182.308          49.000    20914110.759   111954954.555          47.000    20914114.815    87076128.987          49.000    20914114.065    87076127.000          48.000
R04  19122736.185   102401484.850         367.013          54.000    19122735.202   102401509.858          52.000    19122737.651    79645672.096          53.000    19122737.829    79645666.096          51.000
R05  21597339.982   115450215.927        3597.574          47.000    21597339.356   115450201.927          45.000    21597343.984    89794790.729          46.000    21597343.806    89794700.722          45.000
R12  22785370.247   121715355.032       -3913.750          43.000    22785369.121   121715430.052          41.000    22785374.357    94667618.010          43.000    22785375.214    94667595.018          41.000
R13  20080866.907   107230765.347       -1014.806          42.000    20080865.584   107230770.347          39.000    20080869.855    83401713.969          45.000    20080869.283    83401712.951          46.000
R14  21142199.938   112699907.549        3606.691          49.000    21142198.777   112699847.550          47.000    21142204.477    87655496.383          49.000    21142204.334    87655497.390          47.000
R20  21787058.257   116505194.815       -2222.430          36.000    21787058.186   116505187.821          35.000    21787063.368    90615176.053          38.000    21787063.547    90615166.066          38.000
R21  22283361.203   119242753.112        1900.386          43.000    22283359.953   119242723.138          42.000    22283364.456    92744392.976          42.000    22283365.242    92744392.997          40.000
E04  24505462.661   128777190.490       -1831.163          50.000    24505457.497   104526957.749          56.000    24505461.428    98673483.960          53.000    24505463.394    97419175.342          57.000    24505463.036    96164851.144          53.000
E05  25484602.422   133922525.921        2792.099          42.000    25484596.310   108703341.419          45.000    25484603.655   102615984.523          46.000    25484605.156   101311552.144          49.000    25484604.602   100007109.173          44.000
E09  23629736.744   124175187.962         813.464          52.000    23629731.847   100791556.748          59.000    23629736.440    95147262.434          56.000    23629738.495    93937776.155          59.000    23629738.459    92728276.299          56.000
E15  27887709.827   146550897.117        2490.965          38.000    27887707.289   118953639.313          44.000    27887714.097   112292269.315          44.000    27887716.939   110864832.668          48.000    27887717.171   109437388.446          45.000
E21  26516019.081   139342696.935       -1459.720          43.000    26516016.973   113102871.996          50.000    26516020.689   106769134.633          47.000    26516022.923   105411915.701          50.000    26516022.905   104054676.182          47.000
E31  27306642.776   143497330.664        3208.677          40.000    27306639.559   116475148.748          47.000    27306647.261   109952534.736          45.000    27306649.727   108554841.246          49.000    27306649.995   107157140.166          45.000
E34  25628060.996   134676464.816          15.654          46.000    25628057.797   109315336.438          51.000    25628063.587   103193706.868          50.000    25628065.391   101881934.413          54.000    25628065.159   100570153.354          49.000
E36  26272175.999   138061291.051       -2641.606          43.000    26272172.247   112062731.529          49.000    26272178.555   105787272.644          47.000    26272180.699   104442529.884          51.000    26272180.877   103097776.533          48.000
C05  40610369.550   211469073.155         -63.511          34.000    40610363.171   171835717.003          38.000    40610365.387   163521116.341          39.000
C06  39641508.999   206423849.439       -1214.931          35.000    39641498.170   167736217.573          38.000    39641502.977   159620024.228          41.000
C12  26136826.852   136101193.466        1813.679          35.000    26136816.774   110593450.040          40.000    26136822.635   105242178.907          44.000
C16  40675371.677   211807512.870       -1228.495          34.000    40675365.120   172110905.404          35.000    40675372.071   163783009.559          39.000
C19  24329329.649   126689335.323        2775.616          45.000    24329319.214   102945452.104          48.000                                                    24329327.648    95473658.467          50.000    24329325.879    97964269.018          45.000    24329329.220   127851770.881          45.000
C20  21862642.777   113844637.059         159.296          54.000    21862629.858    92508069.236          53.000                                                    21862637.524    85793823.412          57.000    21862635.826    88031902.899          52.000    21862641.866   114889066.444          54.000
C23  23176510.044   120686260.778       -1019.644          50.000    23176494.265    98067465.115          51.000                                                    23176501.163    90949675.238          54.000    23176499.233    93322292.993          49.000    23176509.311   121793473.625          50.000
C25  26122195.035   136025205.414       -3199.418          39.000    26122186.440   110531571.660          41.000                                                    26122191.444   102509173.098          42.000    26122190.389   105183318.674          39.000    26122192.677   137273115.530          39.000
C32  23997307.353   124960350.109       -2863.934          46.000    23997301.831   101540509.716          48.000                                                    23997308.711    94170684.289          51.000    23997306.727    96627267.786          46.000    23997307.674   126106767.954          47.000
C37  23322174.227   121444722.679        2217.679          49.000    23322170.206    98683768.871          50.000                                                    23322175.442    91521281.800          54.000    23322173.869    93908775.390          48.000    23322173.405   122558888.302          50.000
C39  41255353.882   214827548.675       -1335.995          34.000    41255345.269   174564969.815          37.000                                                    41255350.755   161894961.897          36.000    41255348.879   166118304.416          30.000    41255354.097   216798437.074          35.000
C40  40500260.006   210895556.526        2015.178          36.000    40500252.090   171369897.655          40.000                                                    40500257.772   158931787.257          44.000    40500255.896   163077836.246          38.000    40500259.577   212830343.725          38.000
C44  25394386.031   132235189.372         434.274          39.000    25394380.009   107451896.583          44.000                                                    25394387.050    99652963.325          45.000    25394384.351   102252653.741          39.000    25394383.404   133448353.829          35.000
C60  41468731.066   215938545.635         -27.826          36.000    41468711.839   175467692.286          38.000                                                                                                    41468719.076   166977386.950          39.000
> 2024 05 10 22 00  4.0000000  0 43
G04  24626616.370   129413808.746       -3646.398          34.000    24626623.625   100842188.628          19.000    24626623.660   100842184.647                          41.000    24626625.376    96640432.940          46.000    24626615.083   129414042.771          37.000
G05  22262525.476   116990410.348        2615.515          45.000    22262531.069    91161418.413          44.000    22262531.158    91161407.421                          47.000
G07  21113863.295   110954118.843         761.710          51.000    21113867.155    86457600.320          54.000    21113867.530    86457597.331                          52.000
G09  21443013.968   112683880.272       -2537.089          48.000    21443019.668    87805750.849          51.000    21443020.044    87805741.837                          49.000    21443017.971    84147163.585          54.000
G11  23675730.644   124416954.527       -3070.777          40.000    23675736.147    96948266.066          27.000    23675736.862    96948259.108                          44.000    23675739.114    92908807.755          49.000    23675728.535   124417073.542          41.000
G13  24290585.212   127647886.520        3786.459          31.000
G16  23052948.341   121144001.382       -1741.931          41.000    23052953.291    94398060.085          30.000
G18  25678399.195   134941027.601        3149.057          31.000    25678405.610   105148760.081          16.000    25678406.432   105148870.155                          38.000    25678408.415   100767564.374          41.000    25678396.943   134940879.611          32.000
G20  21003556.923   110374489.390         475.133          49.000    21003560.264    86005895.575          42.000
G26  25663416.752   134862181.065       -3457.267          30.000    25663424.882   105087440.053          22.000    25663424.953   105087506.037                          37.000    25663422.077   100708900.086          43.000
G27  24995811.398   131353856.372        2846.842          34.000    24995818.314   102353696.289          27.000    24995819.136   102353727.318                          38.000    24995815.669    98088951.846          41.000
G29  25284689.707   132871913.147       -2481.317          31.000    25284698.177   103536623.638          22.000    25284697.873   103536385.675                          33.000
G30  22168801.075   116497845.139        2750.471          47.000    22168808.044    90777655.002          48.000    22168808.866    90777645.992                          47.000    22168806.132    86995246.774          54.000
R03  20914705.851   111958148.129       -3182.777          49.000    20914705.154   111958137.140          48.000    20914709.407    87078604.355          50.000    20914708.871    87078602.346          48.000
R04  19122667.390   102401118.321         366.290          54.000    19122666.746   102401143.335          52.000    19122669.570    79645387.015          54.000    19122669.248    79645381.015          52.000
R05  21596666.945   115446618.536        3597.319          47.000    21596666.534   115446604.545          45.000    21596670.572    89791992.765          47.000    21596670.858    89791902.763          45.000
R12  22786103.038   121719268.932       -3914.054          43.000    22786101.930   121719343.937          42.000    22786107.058    94670662.147          44.000    22786108.237    94670639.146          42.000
R13  20081057.140   107231780.700       -1015.640          42.000    20081056.033   107231785.704          40.000    20081059.714    83402503.680          44.000    20081059.696    83402502.675          45.000
R14  21141523.453   112696301.251        3606.120          49.000    21141522.309   112696241.251          47.000    21141528.331    87652691.496          49.000    21141527.866    87652692.501          48.000
R20  21787474.248   116507417.835       -2223.358          37.000    21787473.694   116507410.860          35.000    21787479.913    90616905.046          39.000    21787479.287    90616895.061          38.000
R21  22283006.075   119240853.340        1899.463          44.000    22283004.734   119240823.351          42.000    22283009.863    92742915.382          42.000    22283010.309    92742915.408          41.000
E04  24505811.125   128779021.871       -1831.497          49.000    24505805.996   104528444.254          56.000    24505809.927    98674887.219          53.000    24505811.911    97420560.767          56.000    24505811.607    96166218.726          53.000
E05  25484071.140   133919733.852        2791.991          42.000    25484065.172   108701075.124          45.000    25484072.212   102613845.130          45.000    25484073.838   101309439.951          49.000    25484073.463   100005024.171          44.000
E09  23629582.105   124174374.742         813.075          51.000    23629577.030   100790896.664          59.000    23629581.748    95146639.323          56.000    23629583.767    93937160.963          59.000    23629583.695    92727669.026          55.000
E15  27887235.994   146548406.407        2490.448          39.000    27887233.492   118951617.590          44.000    27887240.122   112290360.855          43.000    27887243.016   110862948.453          48.000    27887243.302   109435528.476          45.000
E21  26516296.748   139344157.031       -1460.196          44.000    26516294.532   113104057.158          50.000    26516298.553   106770253.454          47.000    26516300.768   105413020.317          51.000    26516300.697   104055766.566          47.000
E31  27306032.316   143494122.047        3208.624          40.000    27306028.850   116472544.363          47.000    27306036.569   109950076.204          45.000    27306039.178   108552413.968          49.000    27306039.214   107154744.143          45.000
E34  25628058.011   134676449.536          15.072          46.000    25628055.277   109315324.036          51.000    25628060.638   103193695.169          51.000    25628062.479   101881922.856          54.000    25628062.193   100570141.965          49.000
E36  26272678.655   138063932.949       -2642.049          43.000    26272675.063   112064875.934          49.000    26272681.246   105789296.937          47.000    26272683.426   104444528.443          51.000    26272683.497   103099749.355          48.000
C05  40610381.701   211469136.743         -63.678          34.000    40610375.501   171835768.680          38.000    40610377.645   163521165.515          39.000
C06  39641742.672   206425064.370       -1215.041          36.000    39641731.522   167737204.822          39.000    39641736.186   159620963.716          41.000
C12  26136478.585   136099380.214        1813.039          34.000    26136468.543   110591976.622          41.000    26136474.708   105240776.772          44.000
C16  40675607.638   211808741.194       -1228.372          34.000    40675600.991   172111903.501          36.000    40675608.138   163783959.359          39.000
C19  24328796.563   126686559.884        2775.394          45.000    24328786.181   102943196.835          48.000                                                    24328794.686    95471566.891          50.000    24328792.846    97962122.880          45.000    24328796.080   127848969.994          46.000
C20  21862612.221   113844478.120         158.776          54.000    21862599.320    92507940.081          53.000                                                    21862606.932    85793703.635          56.000    21862605.270    88031779.995          52.000    21862611.185   114888906.041          54.000
C23  23176705.906   120687280.825       -1020.242          50.000    23176690.110    98068293.996          51.000                                                    23176697.097    90950443.964          54.000    23176695.131    93323081.766          49.000    23176705.209   121794503.021          50.000
C25  26122809.265   136028404.952       -3199.700          38.000    26122800.920   110534171.523          40.000                                                    26122805.888   102511584.267          41.000    26122804.816   105185792.730          39.000    26122807.103   137276344.430          37.000
C32  23997857.361   124963214.221       -2864.198          46.000    23997851.858   101542837.042          48.000                                                    23997858.755    94172842.706          50.000    23997856.736    96629482.505          46.000    23997857.772   126109658.338          47.000
C37  23321748.462   121442505.291        2217.200          49.000    23321744.423    98681967.064          51.000                                                    23321749.641    91519610.780          54.000    23321748.015    93907060.772          48.000    23321747.604   122556650.577          50.000
C39  41255610.463   214828884.907       -1336.251          35.000    41255601.958   174566055.525          38.000                                                    41255607.461   161895968.854          37.000    41255605.532   166119337.572          30.000    41255610.714   216799785.570          36.000
C40  40499872.837   210893541.467        2015.069          37.000    40499865.064   171368260.243          40.000                                                    40499870.729   158930268.691          44.000    40499868.924   163076278.058          38.000    40499872.694   212828310.193          38.000
C44  25394302.261   132234755.533         433.604          39.000    25394296.650   107451544.053          44.000                                                    25394303.744    99652636.359          46.000    25394300.957   102252318.260          39.000    25394300.063   133447915.992          35.000
C60  41468736.552   215938573.538         -27.928          36.000    41468717.164   175467714.952          39.000                                                                                                    41468724.419   166977408.517          40.000
> 2024 05 10 22 00  5.0000000  0 43
G04  24627310.313   129417455.223       -3646.378          34.000    24627317.515   100845030.012          20.000    24627317.604   100845026.017                          41.000    24627319.212    96643155.909          45.000    24627308.830   129417689.222          37.000
G05  22262027.877   116987795.203        2615.055          45.000    22262033.292    91159380.637          44.000    22262033.560    91159369.660                          46.000
G07  21113718.359   110953357.448         761.252          51.000    21113722.219    86457007.013          54.000    21113722.684    86457004.022                          52.000
G09  21443496.950   112686417.681       -2537.472          48.000    21443502.632    87807728.025          51.000    21443502.865    87807719.030                          49.000    21443500.774    84149058.388          54.000
G11  23676314.997   124420025.545       -3070.993          40.000    23676320.393    96950659.080          28.000    23676321.269    96950652.092                          44.000    23676323.538    92911101.048          49.000    23676313.138   124420144.539          42.000
G13  24289864.679   127644100.198        3786.356          31.000
G16  23053279.990   121145743.793       -1742.542          42.000    23053284.850    94399417.833          30.000
G18  25677799.975   134937878.982        3148.622          31.000    25677806.551   105146306.616          16.000    25677807.391   105146416.656                          38.000    25677809.267   100765213.100          41.000    25677797.920   134937730.986          33.000
G20  21003466.720   110374014.707         474.497          49.000    21003469.936    86005525.686          42.000
G26  25664074.367   134865638.713       -3457.440          29.000    25664082.855   105090134.341          22.000    25664082.730   105090200.315                          37.000    25664080.139   100711482.079          43.000
G27  24995269.663   131351009.896        2846.392          33.000    24995276.668   102351478.276          27.000    24995277.365   102351509.293                          37.000    24995273.934    98086826.217          41.000
G29  25285162.093   132874395.156       -2482.258          31.000    25285170.348   103538557.662          22.000    25285170.384   103538319.663                          33.000
G30  22168277.798   116495094.998        2750.076          47.000    22168284.892    90775512.023          48.000    22168285.535    90775503.023                          48.000    22168282.784    86993193.083          54.000
R03  20915300.746   111961331.159       -3183.110          49.000    20915300.175   111961320.171          48.000    20915303.516    87081080.045          49.000    20915303.480    87081078.046          48.000
R04  19122599.148   102400752.540         365.594          53.000    19122598.540   102400777.553          52.000    19122600.952    79645102.519          54.000    19122601.095    79645096.525          52.000
R05  21595993.872   115443021.434        3597.050          47.000    21595993.640   115443007.432          44.000    21595997.946    89789195.013          47.000    21595997.893    89789105.027          45.000
R12  22786836.114   121723183.246       -3914.415          42.000    22786835.185   121723258.266          42.000    22786840.010    94673706.611          43.000    22786840.921    94673683.622          41.000
R13  20081247.731   107232796.991       -1016.571          41.000    20081246.248   107232801.985          40.000    20081250.144    83403294.107          44.000    20081249.911    83403293.119          46.000
R14  21140846.985   112692695.510        3605.624          49.000    21140845.859   112692635.504          47.000    21140851.988    87649887.032          49.000    21140851.327    87649888.030          47.000
R20  21787890.043   116509641.752       -2224.053          36.000    21787889.096   116509634.771          35.000    21787895.957    90618634.742          39.000    21787895.082    90618624.744          38.000
R21  22282651.321   119238954.428        1898.701          44.000    22282650.052   119238924.445          43.000    22282655.091    92741438.467          43.000    22282655.377    92741438.479          42.000
E04  24506159.606   128780853.524       -1831.636          49.000    24506154.549   104529930.979          56.000    24506158.534    98676290.689          53.000    24506160.482    97421946.399          56.000    24506160.107    96167586.511          53.000
E05  25483540.037   133916941.939        2791.923          42.000    25483533.890   108698808.949          45.000    25483540.948   102611705.871          45.000    25483542.574   101307327.874          49.000    25483542.252   100002939.291          44.000
E09  23629427.270   124173561.902         812.802          51.000    23629422.338   100790236.887          59.000    23629426.966    95146016.491          56.000    23629429.075    93936546.057          59.000    23629429.003    92727062.025          55.000
E15  27886761.822   146545916.090        2490.160          38.000    27886759.731   118949596.210          44.000    27886766.289   112288452.648          43.000    27886769.112   110861064.516          47.000    27886769.452   109433668.798          45.000
E21  26516574.647   139345617.494       -1460.528          43.000    26516572.860   113105242.620          50.000    26516576.452   106771372.519          47.000    26516578.667   105414125.137          50.000    26516578.542   104056857.169          47.000
E31  27305421.607   143490913.623        3208.480          40.000    27305418.480   116469940.116          47.000    27305425.931   109947617.784          45.000    27305428.629   108549986.804          49.000    27305428.754   107152348.231          46.000
E34  25628055.152   134676434.820          14.614          46.000    25628052.240   109315312.091          51.000    25628057.922   103193683.895          50.000    25628059.691   101881911.734          54.000    25628059.405   100570130.974          49.000
E36  26273181.382   138066575.168       -2642.254          43.000    26273177.665   112067020.580          49.000    26273184.062   105791321.488          46.000    26273186.224   104446527.265          51.000    26273186.403   103101722.442          47.000
C05  40610394.263   211469200.423         -63.654          34.000    40610387.670   171835820.437          38.000    40610389.778   163521214.768          39.000
C06  39641975.863   206426279.350       -1214.905          36.000    39641964.838   167738192.098          39.000    39641969.341   159621903.223          41.000
C12  26136130.443   136097567.477        1812.809          36.000    26136120.472   110590503.611          41.000    26136126.226   105239375.029          44.000
C16  40675843.545   211809969.593       -1228.339          34.000    40675836.915   172112901.684          36.000    40675844.313   163784909.247          40.000
C19  24328263.816   126683784.742        2775.135          45.000    24328253.219   102940941.807          48.000                                                    24328261.725    95469475.537          51.000    24328259.884    97959976.964          45.000    24328263.351   127846169.368          45.000
C20  21862581.701   113844319.702         158.329          54.000    21862568.853    92507811.360          53.000                                                    21862576.501    85793584.248          57.000    21862574.875    88031657.501          52.000    21862580.843   114888746.176          54.000
C23  23176901.965   120688301.429       -1020.747          50.000    23176886.169    98069123.330          52.000                                                    23176893.013    90951213.089          54.000    23176891.118    93323870.976          49.000    23176901.179   121795532.989          50.000
